[
  {
    "station": "City Hall",
    "lat": 51.0486,
    "lon": -114.0625,
    "permits_within_500m": 711,
    "permits_within_1km": 1085,
    "total_permits": 1796,
    "total_value_500m": 0,
    "total_value_1km": 0,
    "tod_score": 2507
  },
  {
    "station": "Crescent Heights",
    "lat": 51.0516,
    "lon": -114.0642,
    "permits_within_500m": 600,
    "permits_within_1km": 1063,
    "total_permits": 1663,
    "total_value_500m": 0,
    "total_value_1km": 0,
    "tod_score": 2263
  },
  {
    "station": "3 Street SE",
    "lat": 51.0497,
    "lon": -114.058,
    "permits_within_500m": 307,
    "permits_within_1km": 1106,
    "total_permits": 1413,
    "total_value_500m": 0,
    "total_value_1km": 0,
    "tod_score": 1720
  },
  {
    "station": "Sunnyside",
    "lat": 51.0544,
    "lon": -114.0789,
    "permits_within_500m": 85,
    "permits_within_1km": 1032,
    "total_permits": 1117,
    "total_value_500m": 0,
    "total_value_1km": 0,
    "tod_score": 1202
  },
  {
    "station": "Victoria Park-Stampede",
    "lat": 51.0433,
    "lon": -114.0542,
    "permits_within_500m": 154,
    "permits_within_1km": 635,
    "total_permits": 789,
    "total_value_500m": 0,
    "total_value_1km": 0,
    "tod_score": 943
  },
  {
    "station": "Lions Park",
    "lat": 51.0652,
    "lon": -114.0503,
    "permits_within_500m": 131,
    "permits_within_1km": 430,
    "total_permits": 561,
    "total_value_500m": 0,
    "total_value_1km": 0,
    "tod_score": 692
  },
  {
    "station": "Lions Park",
    "lat": 51.0652,
    "lon": -114.0503,
    "permits_within_500m": 131,
    "permits_within_1km": 430,
    "total_permits": 561,
    "total_value_500m": 0,
    "total_value_1km": 0,
    "tod_score": 692
  },
  {
    "station": "Bridgeland-Memorial",
    "lat": 51.0555,
    "lon": -114.048,
    "permits_within_500m": 157,
    "permits_within_1km": 326,
    "total_permits": 483,
    "total_value_500m": 0,
    "total_value_1km": 0,
    "tod_score": 640
  },
  {
    "station": "SAIT-ACAD-Jubilee",
    "lat": 51.0667,
    "lon": -114.0885,
    "permits_within_500m": 129,
    "permits_within_1km": 337,
    "total_permits": 466,
    "total_value_500m": 0,
    "total_value_1km": 0,
    "tod_score": 595
  },
  {
    "station": "Chinook",
    "lat": 50.9978,
    "lon": -114.0707,
    "permits_within_500m": 156,
    "permits_within_1km": 216,
    "total_permits": 372,
    "total_value_500m": 0,
    "total_value_1km": 0,
    "tod_score": 528
  },
  {
    "station": "39 Avenue",
    "lat": 51.025,
    "lon": -114.0836,
    "permits_within_500m": 104,
    "permits_within_1km": 264,
    "total_permits": 368,
    "total_value_500m": 0,
    "total_value_1km": 0,
    "tod_score": 472
  },
  {
    "station": "Erlton-Stampede",
    "lat": 51.0336,
    "lon": -114.0603,
    "permits_within_500m": 42,
    "permits_within_1km": 366,
    "total_permits": 408,
    "total_value_500m": 0,
    "total_value_1km": 0,
    "tod_score": 450
  },
  {
    "station": "Sunalta",
    "lat": 51.0445,
    "lon": -114.0995,
    "permits_within_500m": 66,
    "permits_within_1km": 314,
    "total_permits": 380,
    "total_value_500m": 0,
    "total_value_1km": 0,
    "tod_score": 446
  },
  {
    "station": "Shaganappi Point",
    "lat": 51.0418,
    "lon": -114.1284,
    "permits_within_500m": 73,
    "permits_within_1km": 280,
    "total_permits": 353,
    "total_value_500m": 0,
    "total_value_1km": 0,
    "tod_score": 426
  },
  {
    "station": "69 Street",
    "lat": 51.0396,
    "lon": -114.2062,
    "permits_within_500m": 78,
    "permits_within_1km": 257,
    "total_permits": 335,
    "total_value_500m": 0,
    "total_value_1km": 0,
    "tod_score": 413
  },
  {
    "station": "Heritage",
    "lat": 51.0113,
    "lon": -114.0705,
    "permits_within_500m": 79,
    "permits_within_1km": 224,
    "total_permits": 303,
    "total_value_500m": 0,
    "total_value_1km": 0,
    "tod_score": 382
  },
  {
    "station": "Anderson",
    "lat": 50.9656,
    "lon": -114.0811,
    "permits_within_500m": 79,
    "permits_within_1km": 152,
    "total_permits": 231,
    "total_value_500m": 0,
    "total_value_1km": 0,
    "tod_score": 310
  },
  {
    "station": "Zoo",
    "lat": 51.046,
    "lon": -114.0326,
    "permits_within_500m": 32,
    "permits_within_1km": 231,
    "total_permits": 263,
    "total_value_500m": 0,
    "total_value_1km": 0,
    "tod_score": 295
  },
  {
    "station": "Brentwood",
    "lat": 51.0883,
    "lon": -114.1106,
    "permits_within_500m": 61,
    "permits_within_1km": 128,
    "total_permits": 189,
    "total_value_500m": 0,
    "total_value_1km": 0,
    "tod_score": 250
  },
  {
    "station": "Franklin",
    "lat": 51.0728,
    "lon": -113.9779,
    "permits_within_500m": 58,
    "permits_within_1km": 116,
    "total_permits": 174,
    "total_value_500m": 0,
    "total_value_1km": 0,
    "tod_score": 232
  },
  {
    "station": "Westbrook",
    "lat": 51.0329,
    "lon": -114.1616,
    "permits_within_500m": 26,
    "permits_within_1km": 158,
    "total_permits": 184,
    "total_value_500m": 0,
    "total_value_1km": 0,
    "tod_score": 210
  },
  {
    "station": "Somerset-Bridlewood",
    "lat": 50.9088,
    "lon": -114.0715,
    "permits_within_500m": 35,
    "permits_within_1km": 127,
    "total_permits": 162,
    "total_value_500m": 0,
    "total_value_1km": 0,
    "tod_score": 197
  },
  {
    "station": "Barlow-Max Bell",
    "lat": 51.0684,
    "lon": -113.9953,
    "permits_within_500m": 48,
    "permits_within_1km": 95,
    "total_permits": 143,
    "total_value_500m": 0,
    "total_value_1km": 0,
    "tod_score": 191
  },
  {
    "station": "Shawnessy",
    "lat": 50.9393,
    "lon": -114.0668,
    "permits_within_500m": 37,
    "permits_within_1km": 113,
    "total_permits": 150,
    "total_value_500m": 7508538,
    "total_value_1km": 0,
    "tod_score": 187
  },
  {
    "station": "Whitehorn",
    "lat": 51.0852,
    "lon": -113.9667,
    "permits_within_500m": 20,
    "permits_within_1km": 109,
    "total_permits": 129,
    "total_value_500m": 0,
    "total_value_1km": 0,
    "tod_score": 149
  },
  {
    "station": "Marlborough",
    "lat": 51.0779,
    "lon": -113.9633,
    "permits_within_500m": 22,
    "permits_within_1km": 91,
    "total_permits": 113,
    "total_value_500m": 0,
    "total_value_1km": 0,
    "tod_score": 135
  },
  {
    "station": "Dalhousie",
    "lat": 51.102,
    "lon": -114.1226,
    "permits_within_500m": 22,
    "permits_within_1km": 79,
    "total_permits": 101,
    "total_value_500m": 0,
    "total_value_1km": 0,
    "tod_score": 123
  },
  {
    "station": "Fish Creek-Lacombe",
    "lat": 50.9253,
    "lon": -114.0702,
    "permits_within_500m": 15,
    "permits_within_1km": 67,
    "total_permits": 82,
    "total_value_500m": 0,
    "total_value_1km": 0,
    "tod_score": 97
  }
]